{"type":"FeatureCollection","crs":{"type":"name","properties":{"name":"urn:ogc:def:crs:OGC:1.3:CRS84"}},"features":[{"type":"Feature","properties":{"stacja_pom":"RWD_Bobowa","id1":0,"pointname":"BOBI"},"geometry":{"type":"Point","coordinates":[20.9388814371974,49.70877197926398]}},{"type":"Feature","properties":{"stacja_pom":"RWD_Golanka","id1":0,"pointname":"GOBI"},"geometry":{"type":"Point","coordinates":[20.981883306341743,49.83968176254166]}},{"type":"Feature","properties":{"stacja_pom":"RWD_Pleśna","id1":0,"pointname":"PLBI"},"geometry":{"type":"Point","coordinates":[20.95155748147104,49.92481130221154]}},{"type":"Feature","properties":{"stacja_pom":"RWD_Pławna","id1":0,"pointname":"PWBI"},"geometry":{"type":"Point","coordinates":[20.946059259431763,49.74175804234852]}},{"type":"Feature","properties":{"stacja_pom":"RWD_Tarnów","id1":0,"pointname":"TABI"},"geometry":{"type":"Point","coordinates":[20.94962438149347,49.99704650689353]}},{"type":"Feature","properties":{"stacja_pom":"RWD_Tuchów","id1":0,"pointname":"TUBI"},"geometry":{"type":"Point","coordinates":[21.058154594230064,49.89928191174033]}},{"type":"Feature","properties":{"stacja_pom":"IMGW_Grybów","id1":0,"pointname":"GRBI"},"geometry":{"type":"Point","coordinates":[20.945815155808276,49.62376106680523]}},{"type":"Feature","properties":{"stacja_pom":"IMGW_Ciężkowice","id1":0,"pointname":"CIBI"},"geometry":{"type":"Point","coordinates":[20.973728439195913,49.79221734421674]}},{"type":"Feature","properties":{"stacja_pom":"IMGW_Koszyce_Wielkie","id1":0,"pointname":"KWBI"},"geometry":{"type":"Point","coordinates":[20.949446633257672,49.99724831026548]}}]}